City_ID,City,Lat,Lng,Max Temp (F),Humidity,Cloudiness,Wind Speed,Country,Date
0,geraldton,-28.7667,114.6,70.21,78,75,17.27,AU,1704749064
1,baruun-urt,46.6806,113.2792,-11.54,94,24,4.74,MN,1704749066
2,port-aux-francais,-49.35,70.2167,41.54,80,92,27.2,TF,1704749066
3,edinburgh of the seven seas,-37.0676,-12.3116,65.25,92,100,29.06,SH,1704749067
4,blackmans bay,-43.0167,147.3167,59.13,75,86,3.74,AU,1704749067
5,grytviken,-54.2811,-36.5092,39.88,91,84,5.82,GS,1704749068
6,el bauga,18.262,33.9081,75.0,53,5,12.39,SD,1704749068
7,whitehorse,60.7161,-135.0538,9.81,84,40,13.8,CA,1704749069
8,wietmarschen,52.5333,7.1333,27.95,68,3,14.67,DE,1704749071
9,adamstown,-25.066,-130.1015,74.3,84,100,15.64,PN,1704749072
10,bredasdorp,-34.5322,20.0403,64.54,79,47,10.22,ZA,1704749073
11,ilulissat,69.2167,-51.1,17.62,62,20,20.71,GL,1704749073
12,aykhal,66.0,111.5,-23.12,97,9,2.59,RU,1704749074
13,sungai penuh,-2.0833,101.3833,65.71,98,99,2.39,ID,1704749051
14,yellowknife,62.456,-114.3525,-23.28,76,75,3.44,CA,1704749057
15,bethel,41.3712,-73.414,41.65,65,0,5.75,US,1704748851
16,chonchi,-42.6128,-73.8092,60.12,47,47,2.86,CL,1704749079
17,tual,-5.6667,132.75,83.44,78,100,11.99,ID,1704749081
18,hafar al-batin,28.4328,45.9708,50.58,53,0,6.91,SA,1704749086
19,ust-nera,64.5667,143.2,-44.55,98,97,4.34,RU,1704749088
20,qaqortoq,60.7167,-46.0333,28.38,90,73,8.77,GL,1704749088
21,olonkinbyen,70.9221,-8.7187,35.35,97,100,20.89,SJ,1704748880
22,nemuro,43.3236,145.575,24.53,71,53,9.98,JP,1704749089
23,bilibino,68.0546,166.4372,-23.96,97,100,2.84,RU,1704749070
24,kodiak,57.79,-152.4072,35.11,64,40,9.22,US,1704749090
25,estevan,49.1334,-102.9842,10.74,78,0,9.22,CA,1704749044
26,arteche,12.2645,125.4048,78.4,89,57,7.87,PH,1704749091
27,tiksi,71.6872,128.8694,-30.06,96,99,10.94,RU,1704748805
28,lesosibirsk,58.2358,92.4828,30.9,84,100,13.44,RU,1704749092
29,pursat,12.3333,103.6667,72.12,73,33,2.24,KH,1704749093
30,nagqu,31.5,92.0,7.14,36,0,4.92,CN,1704749093
31,praia da vitoria,38.7333,-27.0667,61.75,77,40,10.58,PT,1704748891
32,tolanaro,-25.0319,46.9987,77.07,88,75,16.11,MG,1704749094
33,chibougamau,49.9168,-74.3659,6.42,78,0,6.91,CA,1704748837
34,waitangi,-43.9535,-176.5597,63.82,86,100,21.3,NZ,1704748802
35,anadyr,64.75,177.4833,0.1,84,100,17.9,RU,1704749063
36,puerto francisco de orellana,-0.4667,-76.9667,84.25,74,75,3.44,EC,1704749096
37,macapa,0.0389,-51.0664,79.36,86,98,10.33,BR,1704749097
38,invercargill,-46.4,168.35,60.91,66,100,4.03,NZ,1704749097
39,hawaiian paradise park,19.5933,-154.9731,80.89,83,0,4.61,US,1704749098
40,east london,-33.0153,27.9116,67.69,89,100,4.18,ZA,1704749098
41,san pedro pochutla,15.7333,-96.4667,87.51,47,3,13.11,MX,1704749099
42,tura,25.5198,90.2201,56.1,80,0,2.51,IN,1704749075
43,ust-tsilma,65.441,52.1498,8.4,93,100,9.98,RU,1704749100
44,wailua homesteads,22.0669,-159.378,75.13,81,75,18.41,US,1704749100
45,ortaca,36.8294,28.7708,53.4,82,75,5.75,TR,1704749101
46,st. john's,47.5649,-52.7093,29.97,90,100,26.46,CA,1704749101
47,tralee,52.2704,-9.7026,32.81,87,8,8.03,IE,1704749094
48,albany,42.6001,-73.9662,36.01,77,29,5.28,US,1704749093
49,port alfred,-33.5906,26.891,69.55,82,93,5.64,ZA,1704748840
50,papatowai,-46.5619,169.4708,61.54,64,100,5.1,NZ,1704749103
51,puerto ayora,-0.7393,-90.3518,87.76,91,86,10.0,EC,1704749104
52,petropavlovsk-kamchatsky,53.0452,158.6483,-3.55,78,0,7.0,RU,1704749098
53,new plymouth,-39.0667,174.0833,65.32,91,29,5.41,NZ,1704749007
54,bhanpuri,21.1,80.9167,63.81,62,0,5.57,IN,1704749106
55,long beach,33.767,-118.1892,65.34,24,0,8.01,US,1704749101
56,laguna,38.421,-121.4238,55.15,53,75,6.91,US,1704748881
57,fort mcmurray,56.7268,-111.381,-2.69,77,0,6.91,CA,1704749108
58,bani suwayf,29.0744,31.0979,59.14,25,100,4.65,EG,1704749108
59,kosong,38.3788,128.4676,34.29,75,64,10.22,KR,1704749109
60,portland,45.5234,-122.6762,45.57,94,100,12.66,US,1704748618
61,ola,59.5833,151.2833,-17.34,88,97,4.38,RU,1704749110
62,edinburg,55.9521,-3.1965,37.78,78,75,8.05,GB,1704748938
63,kudahuvadhoo,2.6708,72.8944,81.91,79,100,12.48,MV,1704748907
64,la plata,-34.9215,-57.9545,85.82,41,4,10.25,AR,1704749025
65,nzerekore,7.7562,-8.8179,76.75,31,2,2.57,GN,1704749113
66,santa cruz,-17.8,-63.1667,90.86,58,20,16.11,BO,1704748868
67,belmonte,-15.8631,-38.8828,79.32,79,54,6.93,BR,1704748861
68,kuraymah,18.55,31.85,76.05,46,8,8.95,SD,1704749115
69,island harbour,50.724,-1.2758,35.64,78,76,10.0,GB,1704749115
70,puerto natales,-51.7236,-72.4875,50.45,62,75,28.77,CL,1704749116
71,bhamo,24.2667,97.2333,52.61,71,0,1.41,MM,1704749116
72,margaret river,-33.95,115.0667,61.57,89,99,9.8,AU,1704749117
73,asau,46.4333,26.4,13.28,93,100,7.61,RO,1704749118
74,lompoc,34.6391,-120.4579,63.01,34,0,10.36,US,1704749011
75,zouerate,22.7187,-12.4521,68.63,27,0,6.44,MR,1704748906
76,kamyzyak,46.11,48.0736,23.02,62,0,8.95,RU,1704749082
77,bati,11.1833,40.0167,59.86,68,9,4.7,ET,1704749120
78,iqaluit,63.7506,-68.5145,-16.31,68,20,2.3,CA,1704749120
79,posse,-14.0931,-46.3694,69.37,94,100,1.99,BR,1704749121
80,aldama,22.9167,-98.0667,78.8,41,62,11.01,MX,1704749122
81,thompson,55.7435,-97.8558,-16.44,76,100,2.3,CA,1704749122
82,nha trang,12.25,109.1833,75.2,92,98,5.37,VN,1704749123
83,hermanus,-34.4187,19.2345,64.69,78,4,12.86,ZA,1704749123
84,sitka,57.0531,-135.33,39.09,81,40,0.0,US,1704749124
85,bopolu,7.0667,-10.4875,77.9,85,4,4.79,LR,1704748843
86,dudinka,69.4058,86.1778,-13.32,94,100,15.99,RU,1704749104
87,enewetak,11.3474,162.3373,80.49,73,100,20.45,MH,1704749125
88,flying fish cove,-10.4217,105.6791,76.68,100,40,3.44,CX,1704748835
89,kerikeri,-35.2268,173.9474,70.92,82,42,5.66,NZ,1704749126
90,usinsk,65.9939,57.5281,-0.92,98,100,4.0,RU,1704749127
91,palmer,42.1584,-72.3287,38.57,61,20,8.05,US,1704748942
92,mejit,10.2753,170.8646,81.73,71,100,18.34,MH,1704748903
93,atar,20.5169,-13.0499,71.33,13,0,6.46,MR,1704749129
94,stanley,54.868,-1.6985,35.76,77,75,8.05,GB,1704749129
95,laojunmiao,39.8333,97.7333,24.64,15,0,5.41,CN,1704748931
96,uturoa,-16.7333,-151.4333,80.26,81,24,15.79,PF,1704749130
97,grand-bourg,15.8835,-61.3148,82.35,66,24,18.03,GP,1704748884
98,penzance,50.1186,-5.5371,36.28,77,82,21.59,GB,1704749131
99,kapuskasing,49.4169,-82.4331,6.8,66,20,2.3,CA,1704749132
100,ushuaia,-54.8,-68.3,46.06,76,40,21.85,AR,1704749007
101,hotan,37.0997,79.9269,29.23,39,100,2.62,CN,1704749133
102,talara,-4.5772,-81.2719,83.16,65,0,17.27,PE,1704749133
103,luderitz,-26.6481,15.1594,64.65,74,0,20.18,NA,1704748841
104,bridlington,54.0831,-0.1919,41.02,72,96,15.01,GB,1704749134
105,spassk-ryazanskiy,54.4072,40.3806,6.48,83,45,9.4,RU,1704749077
106,berezovyy,51.6667,135.7,-17.97,93,39,2.53,RU,1704749135
107,kyren,51.6828,102.1408,6.94,85,23,3.0,RU,1704749136
108,flin flon,54.7682,-101.865,-9.56,77,100,2.3,CA,1704749137
109,wynyard,-41.0,145.7167,59.56,74,82,6.13,AU,1704749137
110,greymouth,-42.4667,171.2,62.71,75,100,2.33,NZ,1704749138
111,owatonna,44.0839,-93.226,32.36,80,100,12.66,US,1704749138
112,oakdale,44.963,-92.9649,30.15,83,100,10.36,US,1704749139
113,faya-largeau,17.9257,19.1043,69.82,11,11,10.69,TD,1704749139
114,acarau,-2.8856,-40.12,81.14,75,95,12.93,BR,1704749096
115,lihue,21.9789,-159.3672,75.74,81,75,18.41,US,1704748857
116,watford city,47.8022,-103.2832,14.16,85,100,10.36,US,1704749140
117,vila do maio,15.1333,-23.2167,74.19,72,74,12.44,CV,1704749074
118,la'ie,21.6477,-157.9253,76.6,73,99,16.82,US,1704749141
119,midvagur,62.0511,-7.1939,43.63,81,100,9.22,FO,1704749142
120,san patricio,28.017,-97.5169,87.89,41,15,16.13,US,1704749142
121,luang prabang,19.8856,102.1347,64.18,89,16,0.47,LA,1704749143
122,punta arenas,-53.15,-70.9167,51.91,54,40,23.02,CL,1704748922
123,utrik,11.2278,169.8474,80.02,69,78,20.89,MH,1704748861
124,magadan,59.5667,150.8,-15.45,81,84,4.07,RU,1704749144
125,tionk essil,12.7856,-16.5217,75.16,45,94,10.92,SN,1704749145
126,saynshand,44.8824,110.1163,-4.92,94,10,3.56,MN,1704749145
127,crane,31.3974,-102.3501,49.41,18,1,38.39,US,1704749146
128,ribeira grande,38.5167,-28.7,63.0,82,40,16.11,PT,1704749146
129,antonio enes,-16.2325,39.9086,79.77,91,86,8.19,MZ,1704749147
130,port elizabeth,-33.918,25.5701,67.32,88,75,4.61,ZA,1704749147
131,vadso,70.0744,29.7487,23.16,93,100,11.5,NO,1704749148
132,young,-32.6833,-57.6333,89.28,37,37,4.59,UY,1704749149
133,kununurra,-15.7667,128.7333,75.18,94,100,1.14,AU,1704749149
134,loango,-4.6719,11.8312,78.17,83,86,4.88,CG,1704749153
135,udachny,66.4167,112.4,-34.56,100,26,2.3,RU,1704749153
136,batticaloa,7.7102,81.6924,77.9,87,100,4.74,LK,1704749154
137,santa ana de yacuma,-13.75,-65.4333,91.35,62,20,13.8,BO,1704749154
138,hamilton,39.1834,-84.5333,39.83,74,0,10.36,US,1704749155
139,rongelap,11.1635,166.8941,80.6,70,72,21.36,MH,1704749155
140,port mathurin,-19.6833,63.4167,81.39,66,14,5.5,MU,1704749116
141,marsh harbour,26.5412,-77.0636,71.29,68,100,20.29,BS,1704748805
142,susuman,62.7833,148.1667,-44.01,99,100,1.01,RU,1704748909
143,cold lake,54.4502,-110.2017,6.75,72,20,8.05,CA,1704749157
144,morondava,-20.2833,44.2833,81.1,86,100,7.2,MG,1704749158
145,argo,37.6333,22.7333,50.79,78,100,2.21,GR,1704749158
146,malango,-2.9627,119.9001,69.01,99,100,1.34,ID,1704749159
147,alofi,-19.0595,-169.9187,85.89,79,75,5.75,NU,1704749159
148,aden,12.7794,45.0367,77.68,62,13,14.76,YE,1704749160
149,west island,-12.1568,96.8225,80.58,83,40,14.97,CC,1704749160
150,karratha,-20.7377,116.8463,83.89,38,2,13.24,AU,1704749119
151,keflavik,64.0049,-22.5624,45.03,100,100,33.38,IS,1704749133
152,touba,8.2833,-7.6833,81.73,21,0,1.25,CI,1704749162
153,cockburn town,21.4612,-71.1419,77.88,77,45,19.62,TC,1704748970
154,freetown,8.484,-13.2299,79.72,79,89,9.95,SL,1704749163
155,vuktyl,63.8567,57.3094,-1.89,98,100,5.99,RU,1704749163
156,isafjordur,66.0755,-23.124,41.74,86,100,17.9,IS,1704749164
157,moyynkum,44.2914,72.9469,40.78,77,100,8.16,KZ,1704749165
158,selfoss,63.9331,-20.9971,43.05,87,100,23.31,IS,1704749165
159,brisas de zicatela,15.8369,-97.0419,84.72,58,0,11.5,MX,1704749129
160,sinabang,2.4803,96.3801,76.28,94,100,4.14,ID,1704749166
161,new norfolk,-42.7826,147.0587,60.93,69,49,0.2,AU,1704749167
162,igrim,63.1906,64.4162,-14.08,98,7,4.81,RU,1704749167
163,dembi dolo,8.5333,34.8,65.01,54,59,3.31,ET,1704749168
164,lorengau,-2.0226,147.2712,77.85,90,100,15.77,PG,1704749168
165,colonia,50.9333,6.95,28.85,55,0,3.44,DE,1704748926
166,birniwa,12.7903,10.2348,70.65,11,57,8.28,NG,1704749169
167,touros,-5.1989,-35.4608,81.55,74,1,10.42,BR,1704749170
168,buka,40.8108,69.1986,44.82,83,67,2.46,UZ,1704749084
169,arkhangel'sk,64.5401,40.5433,19.13,92,20,6.71,RU,1704749171
170,constantia,44.1833,28.65,20.08,77,97,22.3,RO,1704748918
171,pont rouge,48.8833,-72.0825,17.89,76,99,9.78,CA,1704749172
172,banjarmasin,-3.3244,114.591,78.94,95,76,2.64,ID,1704749172
173,tazacorte,28.629,-17.9293,66.15,83,0,6.91,ES,1704749176
174,hami,42.8,93.45,21.92,60,2,3.98,CN,1704749177
175,vallenar,-28.5708,-70.7581,85.55,29,0,8.59,CL,1704749177
176,pacocha,-17.5833,-71.3333,73.54,73,0,11.5,PE,1704749178
177,vicente camalote,18.5139,-96.525,84.9,59,100,5.59,MX,1704749179
178,cartagena del chaira,1.3349,-74.8429,93.87,38,68,5.75,CO,1704748972
179,dunedin,-45.8742,170.5036,64.13,60,100,2.91,NZ,1704749180
180,key west,24.5557,-81.7826,75.99,88,75,15.01,US,1704749011
181,al jawf,29.5,38.75,63.5,44,93,10.89,SA,1704749181
182,remire-montjoly,4.9167,-52.2667,80.64,89,0,5.75,GF,1704749181
183,buala,-8.145,159.5921,82.0,81,78,2.93,SB,1704749125
184,minuwangoda,7.1663,79.9533,76.93,100,40,5.75,LK,1704749188
185,huarmey,-10.0681,-78.1522,77.11,75,69,12.88,PE,1704749188
186,alice springs,-23.7,133.8833,76.21,49,11,1.99,AU,1704749189
187,talnakh,69.4865,88.3972,-11.02,89,100,6.04,RU,1704749076
188,devin,41.7433,24.4,40.5,97,97,2.28,BG,1704749190
189,codrington,-38.2667,141.9667,60.53,89,100,5.5,AU,1704749133
190,opuwo,-18.0607,13.84,70.56,62,82,4.68,NA,1704749191
191,pitimbu,-7.4706,-34.8086,82.99,73,2,13.31,BR,1704749096
192,yanqul,23.5905,56.5501,57.47,56,0,5.35,OM,1704749192
193,gokwe,-18.2048,28.9349,68.79,77,95,4.32,ZW,1704749192
194,greenland,43.0362,-70.8328,34.61,69,20,10.36,US,1704749193
195,atafu village,-8.5421,-172.5159,83.97,71,12,7.67,TK,1704749193
196,la ronge,55.1001,-105.2842,-3.75,71,75,5.75,CA,1704749194
197,neelankarai,12.9455,80.2575,78.85,83,75,3.44,IN,1704749195
198,puerto baquerizo moreno,-0.9,-89.6,81.59,78,75,14.97,EC,1704748965
199,jamestown,42.097,-79.2353,36.99,87,100,5.75,US,1704748954
200,inhambane,-23.865,35.3833,76.87,83,0,7.2,MZ,1704749199
201,port lincoln,-34.7333,135.8667,61.97,76,67,6.26,AU,1704748982
202,chernomorskoye,45.5039,32.6997,34.3,93,100,29.24,UA,1704749200
203,avarua,-21.2078,-159.775,80.65,78,75,18.41,CK,1704749200
204,angaur state,6.906,134.13,83.16,80,92,19.46,PW,1704749092
205,saipan,15.1355,145.701,79.5,83,0,11.5,MP,1704749135
206,aras-asan,8.8908,126.3033,77.86,89,100,4.63,PH,1704749331
207,concepcion,-36.827,-73.0498,69.6,46,0,20.71,CL,1704749331
208,namibe,-15.1961,12.1522,73.47,83,68,3.65,AO,1704749186
209,bereeda,11.8704,51.0579,75.22,66,44,15.26,SO,1704749332
210,kumeny,58.1089,49.9161,3.34,92,100,12.84,RU,1704749333
211,pinotepa nacional,16.3167,-98.0167,87.49,43,2,10.8,MX,1704749333
212,kavaratti,10.5669,72.642,81.3,79,59,6.67,IN,1704749069
213,sciacca,37.5082,13.0881,50.65,88,100,25.86,IT,1704749334
214,ujae,8.9322,165.7642,80.91,67,100,19.3,MH,1704749335
215,nenjiang,49.1833,125.2167,-20.38,99,92,1.95,CN,1704749336
216,puerto aysen,-45.4,-72.7,51.57,89,99,5.99,CL,1704749337
217,bosaso,11.2842,49.1816,72.05,59,30,5.32,SO,1704749337
218,nikolayevsk-on-amure,53.1406,140.73,-17.66,98,42,4.45,RU,1704749338
219,yung shue wan,22.2333,114.1167,67.32,81,99,9.37,HK,1704749338
220,san antonio de pale,-1.4014,5.6325,81.41,80,37,10.94,GQ,1704749338
221,dodge city,37.7528,-100.0171,31.75,97,100,33.38,US,1704749339
222,pointe aux piments,-20.0628,57.5131,81.16,88,53,8.39,MU,1704749339
223,auki,-8.7676,160.7034,81.37,84,99,2.33,SB,1704749340
224,longyearbyen,78.2186,15.6401,8.44,72,0,14.97,SJ,1704749340
225,oranjemund,-28.55,16.4333,62.26,88,51,14.14,NA,1704749341
226,neiafu,-18.65,-173.9833,84.88,74,40,5.75,TO,1704749341
227,valenca,-13.3703,-39.0731,80.26,78,44,5.61,BR,1704749342
228,ulladulla,-35.35,150.4667,68.9,83,90,11.81,AU,1704749097
229,daru,-9.0763,143.2092,78.37,85,100,4.68,PG,1704749343
230,lebu,-37.6167,-73.65,60.75,66,0,17.98,CL,1704749343
231,goundi,9.3627,17.366,76.6,15,0,3.33,TD,1704749344
232,birzebbuga,35.8258,14.5269,56.08,71,75,27.63,MT,1704749344
233,fort abbas,29.1925,72.8536,54.25,40,80,6.8,PK,1704749345
234,virginia,37.5481,-77.4467,48.29,55,40,0.0,US,1704749214
235,weno,7.4515,151.8468,82.35,69,75,11.5,FM,1704749346
236,acaponeta,22.4964,-105.3594,83.43,42,57,9.1,MX,1704749346
237,pechora,65.1472,57.2244,-4.14,99,100,5.01,RU,1704749075
238,college,64.8569,-147.8028,19.38,82,100,6.91,US,1704749204
239,kapa'a,22.0752,-159.319,77.47,80,75,18.41,US,1704749348
240,talakan,50.3167,130.3667,-23.75,100,74,3.04,RU,1704749348
241,hirara,24.8,125.2833,69.66,83,90,13.8,JP,1704749348
242,sosnovo-ozerskoye,52.5249,111.5418,-20.54,100,94,4.29,RU,1704749349
243,kristiansund,63.1115,7.732,41.05,81,75,14.97,NO,1704749349
244,pangai,-19.8,-174.35,84.31,65,75,6.91,TO,1704749350
245,nadi,-17.8,177.4167,86.0,70,75,3.44,FJ,1704749350
246,vilyuchinsk,52.9306,158.4028,-2.07,84,17,7.74,RU,1704749351
247,kuta,-8.7233,115.1723,80.55,88,20,5.01,ID,1704749223
248,afaahiti,-17.75,-149.2833,84.07,86,55,13.96,PF,1704749353
249,katsuren-haebaru,26.3369,127.8719,64.42,82,100,4.61,JP,1704749354
250,byron bay,-28.65,153.6167,74.71,89,100,9.26,AU,1704749355
251,mount gambier,-37.8333,140.7667,59.67,86,100,5.19,AU,1704749356
252,rio preto da eva,-2.6994,-59.6997,86.81,62,100,2.66,BR,1704749357
253,bubaque,11.2833,-15.8333,81.32,65,17,17.92,GW,1704749358
254,tofol,5.3248,163.0078,82.76,78,98,21.99,FM,1704749358
255,quepos,9.4236,-84.1652,85.03,64,30,6.06,CR,1704749359
256,paso de los toros,-32.8167,-56.5167,89.91,31,37,2.84,UY,1704749360
257,caleta de carquin,-11.0925,-77.6267,76.24,77,69,11.21,PE,1704749360
258,at taj,24.2049,23.2857,62.47,25,100,7.87,LY,1704749361
259,pingliang,35.5392,106.6861,31.06,35,0,4.16,CN,1704749362
260,paita,-5.0892,-81.1144,77.94,70,99,17.45,PE,1704749363
261,point pedro,9.8167,80.2333,77.7,89,97,14.16,LK,1704749363
262,saint-denis,48.9167,2.3333,30.76,86,75,11.5,FR,1704749364
263,la sarre,48.8002,-79.1996,9.16,85,99,4.25,CA,1704749364
264,domodedovo,55.4422,37.7583,10.8,80,100,11.18,RU,1704749343
265,badger,64.8,-147.5333,19.31,87,100,6.91,US,1704749365
266,alcaniz,41.05,-0.1333,38.53,69,83,7.65,ES,1704749366
267,aioun,16.6614,-9.6149,75.61,10,11,10.71,MR,1704749367
268,hammerfest,70.6634,23.6821,32.45,100,100,1.14,NO,1704749367
269,teknaf,20.8624,92.3058,62.98,68,0,11.43,BD,1704749368
270,ghat,24.9647,10.1728,57.22,25,0,6.29,LY,1704749153
271,cam ranh,11.9214,109.1591,75.16,83,20,4.61,VN,1704749368
272,saint-joseph,-21.3667,55.6167,77.38,83,81,9.48,RE,1704749369
273,kanina khas,28.3333,76.3167,48.07,65,0,2.51,IN,1704749369
274,pangody,65.85,74.4859,-3.95,98,100,10.45,RU,1704749370
275,vorgashor,67.5833,63.95,-23.75,100,100,3.15,RU,1704749095
276,ivanava,52.1451,25.5365,-0.69,94,5,4.83,BY,1704749371
277,nogliki,51.8333,143.1667,-10.66,95,32,8.01,RU,1704749371
278,richards bay,-28.783,32.0377,73.45,90,98,8.32,ZA,1704749108
279,las heras,-46.5419,-68.9359,72.0,16,19,27.09,AR,1704749093
280,gornozavodsk,58.3758,58.3211,-12.19,100,100,3.22,RU,1704749373
281,kaoma,-14.7833,24.8,66.0,96,78,1.16,ZM,1704749373
282,chake chake,-5.2459,39.7666,80.38,77,100,10.56,TZ,1704749374
283,lagos,6.5833,3.75,84.52,84,39,6.87,NG,1704749037
284,taoudenni,22.6783,-3.9836,72.55,23,0,7.85,ML,1704749375
285,tsiombe,-25.3,45.4833,75.56,86,20,15.46,MG,1704749149
286,ta`u,-14.2336,-169.5144,81.95,78,70,8.43,AS,1704749376
287,nizhnesortymskiy,62.4397,71.7603,-1.62,93,100,19.66,RU,1704749376
288,nuuk,64.1835,-51.7216,23.61,80,75,16.11,GL,1704749377
289,mitu,1.1983,-70.1733,83.61,69,100,2.21,CO,1704749377
290,cambria,35.5641,-121.0808,60.22,63,4,5.01,US,1704749378
291,gutao,37.2025,112.1781,32.05,43,0,14.05,CN,1704749378
292,burang,30.25,81.1667,16.07,27,0,4.16,CN,1704749379
293,cancun,21.1743,-86.8466,82.33,78,40,14.97,MX,1704749221
294,birao,10.2849,22.7882,68.85,21,36,6.11,CF,1704749379
295,cooma,-36.2333,149.1333,58.84,92,100,3.42,AU,1704749380
296,gratkorn,47.1497,15.3655,30.45,79,75,4.61,AT,1704749381
297,melchor de mencos,17.0686,-89.1522,89.6,51,20,11.5,GT,1704749381
298,smara,26.7384,-11.6719,65.89,38,97,8.57,EH,1704749382
299,contamana,-7.3333,-75.0167,92.62,46,100,5.23,PE,1704749382
300,bathsheba,13.2167,-59.5167,81.21,78,20,18.41,BB,1704749150
301,saline,34.6501,-92.6835,44.82,91,100,7.78,US,1704749383
302,vernon,50.2581,-119.2691,32.61,70,100,4.0,CA,1704749384
303,fuglafjordur,62.244,-6.814,43.27,73,95,9.75,FO,1704749384
304,iskateley,67.6803,53.1512,-11.97,100,53,5.01,RU,1704749385
305,tortum,40.2973,41.5477,40.95,90,97,10.36,TR,1704749239
306,ciudad altamirano,18.3167,-100.65,90.75,32,66,3.62,MX,1704749386
307,volokolamsk,56.0336,35.9694,13.1,93,100,11.12,RU,1704749386
308,fort stockton,30.894,-102.8793,50.76,21,0,18.99,US,1704749386
309,shingu,33.7333,135.9833,36.64,74,83,5.46,JP,1704749387
310,east end,34.5507,-92.341,44.91,92,100,10.4,US,1704749387
311,pisco,-13.7,-76.2167,80.65,61,0,23.02,PE,1704749225
312,deqen,29.9618,90.7188,21.79,16,0,2.98,CN,1704749388
313,tangalle,6.024,80.7911,75.36,92,100,3.74,LK,1704749389
314,al khawr,25.7667,51.3167,64.83,68,0,7.54,QA,1704749389
315,barpathar,26.3,93.8667,55.15,84,0,1.12,IN,1704749390
316,kangding,30.0513,101.9603,35.19,29,0,7.56,CN,1704749390
317,cabo san lucas,22.8909,-109.9124,76.6,51,75,11.5,MX,1704749372
318,san juan de miraflores,-12.1629,-76.9635,75.72,77,91,10.25,PE,1704749314
319,saudarkrokur,65.7461,-19.6394,41.11,76,100,18.88,IS,1704749392
320,kingston,17.997,-76.7936,86.95,70,20,24.16,JM,1704749207
321,muravlenko,63.7898,74.523,-2.29,97,100,14.94,RU,1704749392
322,aasiaat,68.7098,-52.8699,2.64,91,94,7.56,GL,1704749100
323,hithadhoo,-0.6,73.0833,82.78,75,61,12.86,MV,1704749393
324,santa terezinha,-29.9002,-50.0904,81.82,69,97,7.94,BR,1704749394
325,polyarnyy,69.1989,33.4478,14.86,92,100,8.57,RU,1704749183
326,palangkaraya,-2.2,113.8333,74.19,98,98,1.07,ID,1704749149
327,palatka,29.6486,-81.6376,63.99,95,100,7.78,US,1704749395
328,zhangatas,43.5667,69.75,39.85,77,100,19.15,KZ,1704749395
329,margate,51.3813,1.3862,34.9,69,100,5.99,GB,1704748912
330,villa gesell,-37.2639,-56.973,85.05,75,1,31.72,AR,1704749219
331,paramonga,-10.6667,-77.8333,75.6,78,73,11.65,PE,1704749398
332,glace bay,46.1969,-59.957,26.98,78,100,20.71,CA,1704749399
333,kargasok,59.0556,80.8572,7.11,86,99,17.09,RU,1704749399
334,ellwood city,40.8617,-80.2865,40.14,71,99,1.01,US,1704749400
335,simoca,-27.2627,-65.3565,85.1,59,74,4.68,AR,1704749400
336,gopalpur,19.2667,84.9167,66.94,85,0,6.13,IN,1704749401
337,manado,1.487,124.8455,77.77,94,40,1.14,ID,1704749404
338,san blas,21.5167,-105.2667,73.15,71,99,11.34,MX,1704749406
339,santaquin,39.9755,-111.7852,27.36,75,99,2.73,US,1704749407
340,embalse,-32.18,-64.4181,83.64,10,86,10.96,AR,1704749408
341,bel ombre,-4.6167,55.4167,80.44,78,20,4.61,SC,1704749408
342,formosa do rio preto,-11.0483,-45.1931,73.92,90,70,1.23,BR,1704749409
343,nezhinka,51.7676,55.3694,-17.81,76,75,2.24,RU,1704749410
344,scarborough,54.2797,-0.4044,38.77,72,90,11.99,GB,1704749115
345,egilsstadir,65.2653,-14.3948,40.91,70,0,6.91,IS,1704749411
346,twon-brass,4.3151,6.2418,81.81,78,1,6.98,NG,1704749412
347,canandaigua,42.8742,-77.288,38.97,75,100,3.0,US,1704749412
348,hanzhong,33.0728,107.0303,44.53,59,89,4.25,CN,1704749413
349,kaa-khem,51.6833,94.7333,0.41,100,100,0.22,RU,1704749414
350,gunnedah,-30.9833,150.25,78.84,66,73,2.42,AU,1704749414
351,lesogorsk,56.0458,99.5136,11.93,93,100,4.0,RU,1704749415
352,dwarka,22.2394,68.9678,72.66,47,0,20.45,IN,1704749415
353,huangshan,29.7114,118.3125,46.26,88,100,1.23,CN,1704749416
354,coyhaique,-45.5752,-72.0662,57.15,44,40,10.36,CL,1704749417
355,viqueque,-8.8673,126.3658,79.27,88,100,2.39,TL,1704749417
356,baraki barak,33.9675,68.9486,29.68,72,1,5.5,AF,1704749418
357,cobija,-11.0267,-68.7692,91.58,62,40,3.44,BO,1704749418
358,kardla,58.9978,22.7492,29.05,88,73,8.48,EE,1704749419
359,santo andre,-23.6639,-46.5383,75.04,75,75,10.36,BR,1704749420
360,comandante fontana,-25.3345,-59.6821,107.17,20,9,7.85,AR,1704749421
361,samana,19.2056,-69.3369,84.42,79,20,6.91,DO,1704749422
362,carnarvon,-24.8667,113.6333,73.47,80,2,20.18,AU,1704749423
363,shalqar,47.8333,59.6,12.09,76,78,10.02,KZ,1704749423
364,komatipoort,-25.4332,31.9548,74.05,76,60,5.48,ZA,1704749424
365,nizao,18.25,-70.2,84.27,66,25,16.28,DO,1704749425
366,khandyga,62.6667,135.6,-52.78,100,100,0.85,RU,1704749425
367,nema,57.5067,50.5011,2.75,92,100,14.0,RU,1704749429
368,dieppe,49.75,1.1667,30.18,76,100,1.01,FR,1704749287
369,bodo,67.28,14.405,41.45,99,100,25.32,NO,1704749430
370,kyosai,34.8503,128.5886,21.16,45,1,5.19,KR,1704749431
371,peniche,39.3558,-9.3811,51.46,90,100,21.43,PT,1704749431
372,nhamunda,-2.1861,-56.7131,77.63,95,100,2.62,BR,1704749432
373,bikenibeu village,1.3673,173.1241,82.36,89,75,5.75,KI,1704749433
374,mto wa mbu,-3.35,35.85,71.06,93,78,3.96,TZ,1704749434
375,aweil,8.7682,27.4002,74.64,24,36,5.46,SS,1704749435
376,piatykhatky,48.4133,33.7106,12.97,90,100,15.95,UA,1704749436
377,thunder bay,48.4001,-89.3168,13.98,85,100,1.14,CA,1704749437
378,mangalia,43.8,28.5833,27.73,78,99,20.62,RO,1704749164
379,joetsu,37.1483,138.2364,23.11,96,19,10.31,JP,1704749438
380,ceelbuur,4.685,46.6176,72.05,71,59,16.67,SO,1704749439
381,ceres,37.5949,-120.9577,55.06,50,0,3.44,US,1704749440
382,walvis bay,-22.9575,14.5053,61.75,88,10,3.44,NA,1704749440
383,tazovsky,67.4667,78.7,-4.86,97,100,10.13,RU,1704749441
384,nelson bay,-32.7167,152.15,76.08,97,88,1.99,AU,1704749441
385,akhalk'alak'i,41.4051,43.4863,28.74,80,98,6.46,GE,1704749442
386,la passe,45.5549,-0.8967,34.03,78,7,7.0,FR,1704749442
387,holualoa,19.6228,-155.9522,80.55,74,40,24.16,US,1704749165
388,wajir,1.7471,40.0573,84.04,32,30,8.93,KE,1704749443
389,kenai,60.5544,-151.2583,20.14,99,0,4.61,US,1704749444
390,aleksin,54.51,37.08,10.38,93,100,10.58,RU,1704749444
391,tukrah,32.5341,20.5791,61.92,55,3,29.24,LY,1704749445
392,fengtai,39.5581,117.7492,27.59,56,100,4.7,CN,1704749445
393,shangqiu,34.45,115.65,36.54,92,49,5.68,CN,1704749445
394,masaya sur,16.497,121.7456,71.92,90,100,1.19,PH,1704749446
395,rawson,-43.3002,-65.1023,72.59,31,2,11.99,AR,1704749446
396,ha'il,27.5219,41.6907,55.42,67,0,4.61,SA,1704749167
397,maitum,6.0392,124.4986,76.14,89,75,3.98,PH,1704749447
398,neryungri,56.6709,124.6491,-12.23,94,100,9.37,RU,1704749448
399,port-gentil,-0.7193,8.7815,82.36,83,20,9.22,GA,1704749448
400,vedaraniyam,10.3667,79.85,75.16,93,100,7.43,IN,1704749449
401,severnoye,56.3491,78.3619,4.98,90,100,21.99,RU,1704749449
402,barranca,-10.75,-77.7667,70.66,91,78,11.72,PE,1704749450
403,aral,40.5156,81.2636,28.38,44,4,2.64,CN,1704749450
404,potosi,-19.5836,-65.7531,63.46,42,20,11.5,BO,1704749451
405,keetmanshoop,-26.5833,18.1333,83.32,20,0,13.8,NA,1704749451
406,ancud,-41.8697,-73.8203,55.13,68,6,23.17,CL,1704749452
407,nar'yan-mar,67.6713,53.087,-11.88,100,36,5.01,RU,1704749453
408,queenstown,-31.8976,26.8753,60.46,96,100,5.32,ZA,1704749419
409,tegueste,28.5167,-16.3167,63.81,30,0,8.01,ES,1704749453
410,emerald,-23.5333,148.1667,77.34,85,100,10.49,AU,1704749262
411,alesund,62.4723,6.1549,39.34,81,100,13.8,NO,1704749428
412,fort bragg,35.139,-79.006,50.83,49,75,8.05,US,1704749455
413,cruzeiro do sul,-29.5128,-51.9853,87.53,64,99,4.45,BR,1704749455
414,leava,-14.3,-178.1667,83.68,79,85,11.79,WF,1704749456
415,pekanbaru,0.5333,101.45,77.32,100,20,0.0,ID,1704749456
416,gananoque,44.3334,-76.1661,33.87,84,84,3.09,CA,1704749457
417,ulanhot,46.0833,122.0833,-5.78,88,3,5.44,CN,1704749457
418,georgetown,5.4112,100.3354,78.73,97,20,3.44,MY,1704749438
419,suez,29.9737,32.5263,61.29,32,100,3.71,EG,1704749458
420,selebi-phikwe,-21.979,27.8498,75.7,44,66,8.75,BW,1704749459
421,kani keli,-12.9536,45.1033,78.06,74,100,2.98,YT,1704749459
422,happy valley-goose bay,53.3168,-60.3315,16.11,62,75,9.22,CA,1704749460
423,chayan,43.0297,69.3772,37.47,86,100,3.4,KZ,1704749460
424,waddan,29.1614,16.139,52.39,26,0,8.63,LY,1704749461
425,kanniyakumari,8.0833,77.5667,75.54,90,100,9.22,IN,1704749461
426,murmashi,68.8154,32.8115,9.01,92,0,0.0,RU,1704749462
427,hovd,48.0056,91.6419,6.93,87,100,1.03,MN,1704749462
428,san juan bautista,-14.0108,-75.7358,84.42,48,98,16.17,PE,1704749463
429,lethem,3.3803,-59.7968,92.37,34,40,13.18,GY,1704749463
430,yanchep,-31.55,115.6833,65.95,72,3,23.17,AU,1704749464
431,kulhudhuffushi,6.6221,73.07,82.11,70,100,4.12,MV,1704749464
432,yemva,62.59,50.8594,5.52,95,100,6.26,RU,1704749465
433,morant bay,17.8815,-76.4093,87.42,78,26,11.5,JM,1704749465
434,morbi,22.8167,70.8333,66.07,48,5,11.95,IN,1704749466
435,carnot-moon,40.5186,-80.2174,38.53,72,96,3.0,US,1704749400
436,yulinshi,38.2906,109.7494,20.88,80,7,6.49,CN,1704749467
437,havre,49.5833,0.3333,33.21,69,100,8.05,FR,1704749467
438,akureyri,65.6835,-18.0878,42.73,65,20,14.97,IS,1704749468
439,uran,18.8769,72.9397,78.76,70,37,2.19,IN,1704749468
440,quelimane,-17.8786,36.8883,80.55,94,75,0.0,MZ,1704749469
441,north bondi,-33.8824,151.2769,78.89,76,20,16.11,AU,1704749470
442,loushanguan,28.1375,106.82,46.63,91,87,3.56,CN,1704749470
443,slave lake,55.2834,-114.769,3.18,85,100,6.91,CA,1704749471
444,shindand,33.3029,62.1474,43.25,36,0,3.67,AF,1704749471
445,antofagasta,-23.65,-70.4,72.68,71,22,6.67,CL,1704749472
446,plettenberg bay,-34.0527,23.3716,64.54,89,96,7.29,ZA,1704749472
447,conde,-7.2597,-34.9075,81.86,78,20,10.36,BR,1704749473
448,mormugao,15.4,73.8,77.7,75,41,8.21,IN,1704749474
449,puerto palomas,31.7667,-107.6167,40.1,29,1,30.2,MX,1704749475
450,novo brdo,45.5864,16.0229,31.17,69,20,6.91,HR,1704749475
451,arkalyk,50.2486,66.9114,-14.82,100,57,7.14,KZ,1704749476
452,iquique,-20.2208,-70.1431,75.24,75,1,6.67,CL,1704749477
453,encheng,22.1839,112.3026,64.92,85,92,2.84,CN,1704749477
454,arraial do cabo,-22.9661,-42.0278,82.36,83,0,14.97,BR,1704749478
455,sola,-13.8833,167.55,82.47,72,78,5.39,VU,1704749479
456,dobropillya,48.4615,37.0852,13.39,92,100,15.37,UA,1704749479
457,prince rupert,54.3161,-130.3201,40.69,87,100,6.91,CA,1704749480
458,nuevitas,21.5453,-77.2644,78.28,73,11,14.12,CU,1704749480
459,cabedelo,-6.9811,-34.8339,83.07,76,1,12.77,BR,1704749481
460,singarayakonda,15.25,80.0333,73.92,80,69,7.4,IN,1704749482
461,kidal,18.4411,1.4078,73.33,12,0,8.97,ML,1704749482
462,coahuayana de hidalgo,18.7,-103.6583,81.07,65,98,5.68,MX,1704749483
463,turaif,31.6725,38.6637,50.25,53,0,4.61,SA,1704749483
464,gaspe,48.8334,-64.4819,25.02,39,100,3.44,CA,1704749484
465,westport,41.1415,-73.3579,43.56,58,0,10.36,US,1704749485
466,igarka,67.4667,86.5833,0.03,89,100,13.42,RU,1704749485
467,nova vicosa,-17.8919,-39.3719,78.42,86,99,8.97,BR,1704749486
468,meulaboh,4.1363,96.1285,75.36,91,100,1.86,ID,1704749487
469,bridgewater,44.3835,-64.5155,26.28,59,95,13.8,CA,1704749479
470,kittila,67.6647,24.8936,30.34,100,100,4.61,FI,1704749487
471,nuku'alofa,-21.1333,-175.2,84.54,84,75,6.91,TO,1704749488
472,williams lake,52.1415,-122.1445,27.05,72,100,13.8,CA,1704749489
473,ulsteinvik,62.3432,5.8487,39.33,77,100,1.01,NO,1704749489
474,west fargo,46.875,-96.9004,15.8,81,100,8.05,US,1704749476
475,hadibu,12.65,54.0333,73.78,78,79,16.08,YE,1704749490
476,soio,-6.1349,12.3689,78.93,77,99,5.14,AO,1704749491
477,salalah,17.0151,54.0924,77.09,36,0,18.41,OM,1704749491
478,arar,30.9753,41.0381,55.42,76,0,0.0,SA,1704749492
479,curillo,1.0333,-75.9191,89.04,51,83,2.98,CO,1704749492
480,soure,-0.7167,-48.5233,80.22,85,100,11.88,BR,1704749493
481,san rafael,-34.6177,-68.3301,82.56,25,0,9.55,AR,1704749493
482,atamyrat,37.8357,65.2106,50.4,54,17,25.14,TM,1704749494
483,khorugh,37.4897,71.553,23.52,44,6,3.06,TJ,1704749494
484,balqash,46.8481,74.995,33.46,98,100,16.53,KZ,1704749495
485,rio guayabal de yateras,20.3667,-75.0167,72.36,75,1,6.91,CU,1704749495
486,camiri,-20.05,-63.5167,96.58,41,40,0.0,BO,1704749496
487,robertsonpet,12.9667,78.2833,65.03,95,100,7.81,IN,1704749496
488,klyuchi,52.2667,79.1667,11.68,81,98,19.73,RU,1704749497
489,bam,29.106,58.357,48.65,23,0,2.37,IR,1704749498
490,playas,-2.6333,-80.3833,78.94,77,86,15.84,EC,1704749498
491,nalhati,24.3,87.8167,59.45,67,0,5.97,IN,1704749498
492,mao,39.8885,4.2658,43.36,75,0,4.61,ES,1704749499
493,miyaly,48.8844,53.7836,15.96,68,100,11.95,KZ,1704749499
494,mahina,-17.5065,-149.489,85.77,70,40,3.44,PF,1704749500
495,grand gaube,-20.0064,57.6608,81.0,88,52,11.99,MU,1704749501
496,kaga bandoro,6.9896,19.1874,73.6,17,99,2.57,CF,1704749501
497,ambon,-3.6954,128.1814,77.14,94,40,2.3,ID,1704749502
498,nadym,65.5333,72.5167,-1.93,97,100,13.06,RU,1704749502
499,qui nhon,13.7667,109.2333,71.22,88,99,4.29,VN,1704749503
500,novyy turtkul',41.55,61.0167,40.91,47,98,10.74,UZ,1704749503
501,nueve de julio,-35.4444,-60.8831,86.97,52,2,3.0,AR,1704749504
502,cidreira,-30.1811,-50.2056,75.85,87,100,9.6,BR,1704749504
503,regina,50.4501,-104.6178,1.51,81,75,5.75,CA,1704749428
504,bayanhongor,46.7167,100.1167,-6.34,99,94,3.69,MN,1704749505
505,kirensk,57.7853,108.1119,-25.04,100,87,1.01,RU,1704749505
506,yuzhno-kurilsk,44.0306,145.8556,23.38,67,100,13.13,RU,1704749506
507,doka,13.5167,35.7667,76.71,27,3,7.61,SD,1704749506
508,sangamner,19.5667,74.2167,68.45,56,43,5.1,IN,1704749507
509,hobyo,5.3505,48.5268,76.59,70,78,24.05,SO,1704749507
510,kenora,49.8167,-94.4337,13.17,67,75,6.91,CA,1704749508
511,st. paul,44.9444,-93.0933,31.28,82,100,12.66,US,1704749475
512,fayroz koh,34.5195,65.2509,15.69,71,0,5.08,AF,1704749509
513,kendari,-3.945,122.4989,75.72,94,100,1.28,ID,1704749488
514,nabire,-3.3667,135.4833,77.77,87,79,2.01,ID,1704749510
515,bandarbeyla,9.4942,50.8122,73.65,66,15,20.02,SO,1704749511
516,victoria point,-27.5833,153.3,79.25,91,100,1.99,AU,1704749511
517,santo antonio do ica,-3.1022,-67.9397,84.36,74,100,1.41,BR,1704749512
518,fale old settlement,-9.3852,-171.2468,84.06,71,9,7.25,TK,1704749513
519,labytnangi,66.6572,66.4183,-20.38,97,44,3.09,RU,1704749513
520,ixtapa,20.7,-105.2,76.23,73,100,4.0,MX,1704749513
521,bardai,11.65,7.2333,67.05,12,47,9.53,NG,1704749514
522,buta,2.7858,24.73,71.02,45,80,1.23,CD,1704749514
523,sotik post,-0.7813,35.3416,58.44,91,93,1.34,KE,1704749515
524,kruisfontein,-34.0033,24.7314,63.88,85,100,2.95,ZA,1704749515
525,kapoeta,4.7717,33.5903,84.24,30,9,3.11,SS,1704749516
526,itapaci,-14.9508,-49.5494,69.03,98,100,2.42,BR,1704749448
527,al hasakah,36.5024,40.7477,52.32,56,100,7.2,SY,1704749517
528,merizo village,13.2658,144.6691,80.33,88,14,17.54,GU,1704749517
529,guerrero negro,27.9769,-114.0611,62.46,33,34,3.06,MX,1704749280
530,nishinoomote,30.7333,131.0,52.88,70,100,10.22,JP,1704749518
531,east independence,39.0956,-94.3552,34.81,96,100,14.97,US,1704749521
532,minas de marcona,-15.2119,-75.1103,69.75,66,17,15.35,PE,1704749521
533,sao jose da coroa grande,-8.8978,-35.1478,81.21,80,0,12.84,BR,1704749521
534,baardheere,2.3446,42.2764,78.55,57,67,9.98,SO,1704749522
535,paradise,36.0972,-115.1467,50.61,19,0,24.16,US,1704749522
536,palikir - national government center,6.9248,158.1611,81.45,89,75,12.66,FM,1704749523
537,micheweni,-4.9667,39.8333,81.32,79,100,11.61,TZ,1704749523
538,el granada,37.5027,-122.4694,57.45,61,100,10.36,US,1704749524
539,obsharovka,53.125,48.8531,-10.68,100,93,3.09,RU,1704749525
540,gouloure,12.2306,-1.9289,76.73,15,1,8.95,BF,1704749525
541,zonguldak,41.25,31.8333,43.97,96,99,3.56,TR,1704749526
542,tra mhor,52.1624,-7.1524,38.73,72,75,8.05,IE,1704749526
543,broken hill,-31.95,141.4333,71.29,62,0,8.43,AU,1704749485
544,krutinka,56.0055,71.5113,-1.28,91,100,20.29,RU,1704749527
545,gadzhiyevo,69.2551,33.3362,14.31,93,100,8.7,RU,1704749528
546,antigonish,45.6169,-61.9986,26.82,79,100,8.01,CA,1704749529
547,nueva concepcion,14.2,-91.3,87.58,48,3,13.09,GT,1704749529
548,zhanaozen,43.3,52.8,38.59,78,100,12.08,KZ,1704749530
549,grand baie,-20.0182,57.5802,81.07,88,57,10.36,MU,1704749531
550,siocon,7.7061,122.1353,77.7,87,70,3.02,PH,1704749531
551,undurkhaan,47.3194,110.6556,-11.36,98,33,5.06,MN,1704749532
552,vicuna,-30.0319,-70.7081,87.76,25,3,7.76,CL,1704749532
553,mossel bay,-34.1831,22.146,64.33,89,91,11.59,ZA,1704749533
554,saldanha,-33.0117,17.9442,62.65,85,0,23.69,ZA,1704749533
555,borogontsy,62.6683,131.1683,-58.83,100,96,0.92,RU,1704749534
556,quellon,-43.1167,-73.6167,56.64,58,64,9.1,CL,1704749495
557,port macquarie,-31.4333,152.9167,74.89,81,100,5.53,AU,1704749299
558,elesbao veloso,-6.2019,-42.1403,82.45,53,70,3.2,BR,1704749543
559,tchintabaraden,15.8969,5.7985,71.49,13,62,7.96,NE,1704749544
560,yinchuan,38.4681,106.2731,27.84,42,0,2.46,CN,1704749544
561,haiku-pauwela,20.9219,-156.3051,79.16,72,40,28.77,US,1704749545
562,agat village,13.3886,144.6585,80.71,84,75,12.66,GU,1704749548
563,kupang,-10.1667,123.5833,81.18,100,20,2.3,ID,1704749550
564,lupane,-18.9315,27.807,71.78,70,85,4.61,ZW,1704749550
565,abomsa,9.9833,39.9833,63.86,65,38,2.42,ET,1704749551
566,mahajanga,-15.7167,46.3167,78.82,89,40,3.44,MG,1704749552
567,bhander,25.7333,78.75,59.13,49,57,2.91,IN,1704749552
568,safranbolu,41.2508,32.6942,46.02,87,91,0.96,TR,1704749553
569,piacabucu,-10.4056,-36.4344,80.98,80,4,11.63,BR,1704749553
570,askoy,60.4092,5.226,31.75,86,75,4.61,NO,1704749553
571,khromtau,50.2503,58.4347,-2.24,91,86,3.47,KZ,1704749554
572,heroica caborca,30.7167,-112.15,54.45,12,0,17.96,MX,1704749554
573,luganville,-15.5333,167.1667,84.65,75,53,7.94,VU,1704749555
574,husum,54.4858,9.0524,28.36,94,7,6.76,DE,1704749555
575,muli,2.9167,73.5667,81.07,81,100,13.02,MV,1704749556
576,olyokminsk,60.3736,120.4264,-26.79,100,92,2.82,RU,1704749556
577,shambu,9.5667,37.1,57.33,54,97,1.23,ET,1704749557
